{"type": "FeatureCollection", "features": [{"type": "Feature", "geometry": {"type": "Point", "coordinates": [106.6974507, 10.7896756]}, "properties": {"name": "2F Beer", "Address": "2F Nguy\u1ec5n Th\u00e0nh \u00dd, \u0110a Kao"}}, {"type": "Feature", "geometry": {"type": "Point", "coordinates": [106.6877885, 10.8076859]}, "properties": {"name": "Nh\u00e0 H\u00e0ng Bia T\u00f4", "Address": "64 Nguy\u1ec5n V\u0103n \u0110\u1eadu, Ph\u01b0\u1eddng 6"}}, {"type": "Feature", "geometry": {"type": "Point", "coordinates": [106.6719929, 10.7739544]}, "properties": {"name": "DOHO Beer Garden", "Address": "16A L\u00ea H\u1ed3ng Phong, Ph\u01b0\u1eddng 12"}}, {"type": "Feature", "geometry": {"type": "Point", "coordinates": [106.6914504, 10.8195771]}, "properties": {"name": "Bia \u0110\u1ee9c Paderborner", "Address": "328 Ph\u1ea1m V\u0103n \u0110\u1ed3ng, Ph\u01b0\u1eddng 1"}}, {"type": "Feature", "geometry": {"type": "Point", "coordinates": [106.6784155, 10.7791295]}, "properties": {"name": "Lananh Beer Restaurant", "Address": "291 C\u00e1ch M\u1ea1ng Th\u00e1ng T\u00e1m, Ph\u01b0\u1eddng 12"}}, {"type": "Feature", "geometry": {"type": "Point", "coordinates": [106.666957, 10.79616]}, "properties": {"name": "Nh\u00e0 h\u00e0ng Bia th\u1ee7 c\u00f4ng Saigon Craft Beer", "Address": "305/1A \u0110. L\u00ea V\u0103n S\u1ef9, Ph\u01b0\u1eddng 1"}}, {"type": "Feature", "geometry": {"type": "Point", "coordinates": [106.672976, 10.7998238]}, "properties": {"name": "Nh\u00e0 H\u00e0ng Bia T\u01b0\u01a1i Ti\u1ec7p Jodee Beer", "Address": "198 Ho\u00e0ng V\u0103n Th\u1ee5, Ph\u01b0\u1eddng 9"}}, {"type": "Feature", "geometry": {"type": "Point", "coordinates": [106.717274, 10.7966025]}, "properties": {"name": "THE ROPE - Craft Beer Restaurant", "Address": "H\u1ebbm 135/37 Nguy\u1ec5n H\u1eefu C\u1ea3nh, Ph\u01b0\u1eddng 22"}}, {"type": "Feature", "geometry": {"type": "Point", "coordinates": [106.7001556, 10.7852013]}, "properties": {"name": "Hoa Vi\u00ean Brauhaus Minh Khai", "Address": "10 H\u1ebbm 18 Bis Nguy\u1ec5n Th\u1ecb Minh Khai, \u0110a Kao"}}, {"type": "Feature", "geometry": {"type": "Point", "coordinates": [106.6911888, 10.7811317]}, "properties": {"name": "V\u01b0\u01a1ng Qu\u1ed1c Bia B\u1ec9 Beer & Barrel", "Address": "12 L\u00ea Qu\u00fd \u0110\u00f4n, Ph\u01b0\u1eddng 6"}}, {"type": "Feature", "geometry": {"type": "Point", "coordinates": [106.6847492, 10.773107]}, "properties": {"name": "Nh\u00e0 H\u00e0ng Beer T\u00f4", "Address": "136 Nguy\u1ec5n Th\u01b0\u1ee3ng Hi\u1ec1n, Ph\u01b0\u1eddng 4"}}, {"type": "Feature", "geometry": {"type": "Point", "coordinates": [106.6954372, 10.7719635]}, "properties": {"name": "Tan Lap Restaurant Coffee and Beer", "Address": "276 L\u00ea Th\u00e1nh T\u00f4n, Ph\u01b0\u1eddng B\u1ebfn Th\u00e0nh"}}, {"type": "Feature", "geometry": {"type": "Point", "coordinates": [106.6782505, 10.7733552]}, "properties": {"name": "Beer 4000 - Qu\u00e1n 171", "Address": "171 Cao Th\u1eafng, Ph\u01b0\u1eddng 11"}}, {"type": "Feature", "geometry": {"type": "Point", "coordinates": [106.7284129, 10.8268852]}, "properties": {"name": "V\u01af\u1edcN BEER TEXAS", "Address": "79 \u0110\u01b0\u1eddng s\u1ed1 23, Hi\u1ec7p B\u00ecnh Ch\u00e1nh"}}, {"type": "Feature", "geometry": {"type": "Point", "coordinates": [106.6894753, 10.8267594]}, "properties": {"name": "Beer Street", "Address": "Ph\u01b0\u1eddng 5"}}, {"type": "Feature", "geometry": {"type": "Point", "coordinates": [106.6768562, 10.7938961]}, "properties": {"name": "S\u01b0\u1eddn C\u00e2y N\u01b0\u1edbng v\u00e0 Beer H\u1ed3 Bi\u1ec3u Ch\u00e1nh", "Address": "3A H\u1ed3 Bi\u1ec3u Ch\u00e1nh, Ph\u01b0\u1eddng 12"}}, {"type": "Feature", "geometry": {"type": "Point", "coordinates": [106.655431, 10.80093]}, "properties": {"name": "Nh\u00e0 h\u00e0ng S\u01b0\u1eddn C\u00e2y", "Address": "77 C\u1ed9ng H\u00f2a, Ph\u01b0\u1eddng 4"}}, {"type": "Feature", "geometry": {"type": "Point", "coordinates": [106.7175438, 10.8071439]}, "properties": {"name": "B\u1ed0C Food & Beer Garden", "Address": "100 Ung V\u0103n Khi\u00eam, Ph\u01b0\u1eddng 25"}}, {"type": "Feature", "geometry": {"type": "Point", "coordinates": [106.665037, 10.8099701]}, "properties": {"name": "Big Pig BBQ & Beer - Truong Son", "Address": "46 Tr\u01b0\u1eddng S\u01a1n, Ph\u01b0\u1eddng 2"}}, {"type": "Feature", "geometry": {"type": "Point", "coordinates": [106.6951525, 10.8204709]}, "properties": {"name": "Qu\u00e1n Chill Beer Garden", "Address": "528, Ph\u1ea1m V\u0103n \u0110\u1ed3ng, Ph\u01b0\u1eddng 13, Qu\u1eadn G\u00f2 V\u1ea5p, Th\u00e0nh Ph\u1ed1 H\u1ed3 Ch\u00ed Minh, Ph\u01b0\u1eddng 11"}}]}